UNITID,INSTNM,CITY,STABBR,ZIP,ACCREDAGENCY,INSTURL,PREDDEG,MAIN,NUMBRANCH,HIGHDEG,CONTROL,ST_FIPS,LOCALE,LATITUDE,LONGITUDE,State
100654,Alabama A & M University,Normal,AL,35762,Southern Association of Colleges and Schools Commission on Colleges,www.aamu.edu/,Predominantly bachelor's-degree granting,main campus,1,Graduate,Public,1,12,34.783368,-86.568502,Alabama
100663,University of Alabama at Birmingham,Birmingham,AL,35294-0110,Southern Association of Colleges and Schools Commission on Colleges,https://www.uab.edu,Predominantly bachelor's-degree granting,main campus,1,Graduate,Public,1,12,33.505697,-86.799345,Alabama
100690,Amridge University,Montgomery,AL,36117-3553,Southern Association of Colleges and Schools Commission on Colleges,www.amridgeuniversity.edu,Predominantly bachelor's-degree granting,main campus,1,Graduate,Private Non Profit,1,12,32.362609,-86.17401,Alabama
100706,University of Alabama in Huntsville,Huntsville,AL,35899,Southern Association of Colleges and Schools Commission on Colleges,www.uah.edu,Predominantly bachelor's-degree granting,main campus,1,Graduate,Public,1,12,34.724557,-86.640449,Alabama
100724,Alabama State University,Montgomery,AL,36104-0271,Southern Association of Colleges and Schools Commission on Colleges,www.alasu.edu,Predominantly bachelor's-degree granting,main campus,1,Graduate,Public,1,12,32.364317,-86.295677,Alabama
100751,The University of Alabama,Tuscaloosa,AL,35487-0100,Southern Association of Colleges and Schools Commission on Colleges,www.ua.edu/,Predominantly bachelor's-degree granting,main campus,1,Graduate,Public,1,12,33.211875,-87.545978,Alabama
100760,Central Alabama Community College,Alexander City,AL,35010,Southern Association of Colleges and Schools Commission on Colleges,www.cacc.edu,Predominantely certificate-degree granting,main campus,1,Associate,Public,1,32,32.92478,-85.945266,Alabama
100812,Athens State University,Athens,AL,35611,Southern Association of Colleges and Schools Commission on Colleges,www.athens.edu,Predominantly bachelor's-degree granting,main campus,1,Graduate,Public,1,31,34.806793,-86.964698,Alabama
100830,Auburn University at Montgomery,Montgomery,AL,36117-3596,Southern Association of Colleges and Schools Commission on Colleges,www.aum.edu,Predominantly bachelor's-degree granting,main campus,1,Graduate,Public,1,12,32.36736,-86.177544,Alabama
100858,Auburn University,Auburn,AL,36849,Southern Association of Colleges and Schools Commission on Colleges,www.auburn.edu,Predominantly bachelor's-degree granting,main campus,1,Graduate,Public,1,13,32.599378,-85.488258,Alabama
100937,Birmingham-Southern College,Birmingham,AL,35254,Southern Association of Colleges and Schools Commission on Colleges,www.bsc.edu/,Predominantly bachelor's-degree granting,main campus,1,Bachelors,Private Non Profit,1,12,33.513774,-86.850552,Alabama
101028,Chattahoochee Valley Community College,Phenix City,AL,36869,Southern Association of Colleges and Schools Commission on Colleges,www.cv.edu,Predominantely associate's-degree granting,main campus,1,Associate,Public,1,41,32.42391,-85.031485,Alabama
101116,South University-Montgomery,Montgomery,AL,36116,Southern Association of Colleges and Schools Commission on Colleges,"www.southuniversity.edu/montgomery#location=Montgomery,%20AL",Predominantly bachelor's-degree granting,Not main campus,13,Graduate,Private For Profit,1,12,32.342684,-86.216488,Alabama
101143,Enterprise State Community College,Enterprise,AL,36330-1300,Southern Association of Colleges and Schools Commission on Colleges,www.escc.edu,Predominantely associate's-degree granting,main campus,1,Associate,Public,1,32,31.297496,-85.836956,Alabama
101161,Coastal Alabama Community College,Bay Minette,AL,36507-2698,Southern Association of Colleges and Schools Commission on Colleges,www.coastalalabama.edu,Predominantely associate's-degree granting,main campus,1,Associate,Public,1,32,30.851343,-87.778193,Alabama
101189,Faulkner University,Montgomery,AL,36109-3390,Southern Association of Colleges and Schools Commission on Colleges,www.faulkner.edu,Predominantly bachelor's-degree granting,main campus,1,Graduate,Private Non Profit,1,12,32.384181,-86.21641,Alabama
101240,Gadsden State Community College,Gadsden,AL,35903,Southern Association of Colleges and Schools Commission on Colleges,www.gadsdenstate.edu,Predominantely associate's-degree granting,main campus,1,Associate,Public,1,13,33.994001,-85.991438,Alabama
101277,New Beginning College of Cosmetology,Albertville,AL,35951,National Accrediting Commission of Career Arts and Sciences,www.nbccosmetology.com,Predominantely certificate-degree granting,main campus,1,Certificate,Private For Profit,1,32,34.27871,-86.196931,Alabama
101286,George C Wallace Community College-Dothan,Dothan,AL,36303-9234,Southern Association of Colleges and Schools Commission on Colleges,www.wallace.edu,Predominantely associate's-degree granting,main campus,1,Associate,Public,1,13,31.315274,-85.465836,Alabama
101295,George C Wallace State Community College-Hanceville,Hanceville,AL,35077-2000,Southern Association of Colleges and Schools Commission on Colleges,www.wallacestate.edu,Predominantely associate's-degree granting,main campus,1,Associate,Public,1,32,34.072439,-86.781935,Alabama
101301,George C Wallace State Community College-Selma,Selma,AL,36703-2808,Southern Association of Colleges and Schools Commission on Colleges,www.wccs.edu,Predominantely associate's-degree granting,main campus,1,Associate,Public,1,32,32.445917,-87.013294,Alabama
101365,Herzing University-Birmingham,Birmingham,AL,35209,Higher Learning Commission,https://www.herzing.edu/,Predominantely certificate-degree granting,Not main campus,10,Graduate,Private Non Profit,1,21,33.468466,-86.832465,Alabama
101435,Huntingdon College,Montgomery,AL,36106-2148,Southern Association of Colleges and Schools Commission on Colleges,www.huntingdon.edu,Predominantly bachelor's-degree granting,main campus,1,Bachelors,Private Non Profit,1,12,32.351034,-86.284366,Alabama
101453,Heritage Christian University,Florence,AL,35630-9977,Association for Bibical Higher Educaiton,www.hcu.edu,Predominantly bachelor's-degree granting,main campus,1,Graduate,Private Non Profit,1,13,34.856153,-87.663051,Alabama
101462,J. F. Drake State Community and Technical College,Huntsville,AL,35811,Southern Association of Colleges and Schools Commission on Colleges,https://www.drakestate.edu,Predominantely certificate-degree granting,main campus,1,Associate,Public,1,12,34.771858,-86.572885,Alabama
101471,J F Ingram State Technical College,Deatsville,AL,36022,Council on Occupational Education,www.istc.edu,Predominantely certificate-degree granting,main campus,1,Certificate,Public,1,21,32.582312,-86.392369,Alabama
101480,Jacksonville State University,Jacksonville,AL,36265,Southern Association of Colleges and Schools Commission on Colleges,www.jsu.edu/,Predominantly bachelor's-degree granting,main campus,1,Graduate,Public,1,13,33.822938,-85.765321,Alabama
101505,Jefferson State Community College,Birmingham,AL,35215-3098,Southern Association of Colleges and Schools Commission on Colleges,www.jeffersonstate.edu/,Predominantely associate's-degree granting,main campus,1,Associate,Public,1,12,33.652535,-86.707233,Alabama
101514,John C Calhoun State Community College,Tanner,AL,35671,Southern Association of Colleges and Schools Commission on Colleges,https://calhoun.edu,Predominantely associate's-degree granting,main campus,1,Associate,Public,1,41,34.645844,-86.949674,Alabama
101541,Judson College,Marion,AL,36756,Southern Association of Colleges and Schools Commission on Colleges,www.judson.edu,Predominantly bachelor's-degree granting,main campus,1,Bachelors,Private Non Profit,1,43,32.629253,-87.315206,Alabama
101569,Lawson State Community College,Birmingham,AL,35221-1717,Southern Association of Colleges and Schools Commission on Colleges,www.lawsonstate.edu,Predominantely certificate-degree granting,main campus,1,Associate,Public,1,12,33.450814,-86.888844,Alabama
101587,University of West Alabama,Livingston,AL,35470,Southern Association of Colleges and Schools Commission on Colleges,www.uwa.edu,Predominantly bachelor's-degree granting,main campus,1,Graduate,Public,1,43,32.588132,-88.186329,Alabama
101602,Lurleen B Wallace Community College,Andalusia,AL,36420-1418,Southern Association of Colleges and Schools Commission on Colleges,https://www.lbwcc.edu,Predominantely certificate-degree granting,main campus,1,Associate,Public,1,41,31.322947,-86.452262,Alabama
101648,Marion Military Institute,Marion,AL,36756-3207,Southern Association of Colleges and Schools Commission on Colleges,www.marionmilitary.edu,Predominantely associate's-degree granting,main campus,1,Associate,Public,1,43,32.623734,-87.322041,Alabama
101675,Miles College,Fairfield,AL,35064-2621,Southern Association of Colleges and Schools Commission on Colleges,www.miles.edu,Predominantly bachelor's-degree granting,main campus,1,Bachelors,Private Non Profit,1,21,33.482442,-86.908751,Alabama
101693,University of Mobile,Mobile,AL,36613-2842,Southern Association of Colleges and Schools Commission on Colleges,www.umobile.edu,Predominantly bachelor's-degree granting,main campus,1,Graduate,Private Non Profit,1,41,30.793247,-88.128934,Alabama
101709,University of Montevallo,Montevallo,AL,35115-6000,Southern Association of Colleges and Schools Commission on Colleges,www.montevallo.edu,Predominantly bachelor's-degree granting,main campus,1,Graduate,Public,1,21,33.10625,-86.865099,Alabama
101736,Northwest-Shoals Community College,Muscle Shoals,AL,35661,Southern Association of Colleges and Schools Commission on Colleges,https://www.nwscc.edu,Predominantely certificate-degree granting,main campus,1,Associate,Public,1,13,34.739788,-87.678089,Alabama
101879,University of North Alabama,Florence,AL,35632-0001,Southern Association of Colleges and Schools Commission on Colleges,www.una.edu,Predominantly bachelor's-degree granting,main campus,1,Graduate,Public,1,13,34.806738,-87.681361,Alabama
101897,Northeast Alabama Community College,Rainsville,AL,35986,Southern Association of Colleges and Schools Commission on Colleges,https://www.nacc.edu,Predominantely associate's-degree granting,main campus,1,Associate,Public,1,42,34.545471,-85.911664,Alabama
101912,Oakwood University,Huntsville,AL,35896,Southern Association of Colleges and Schools Commission on Colleges,https://www2.oakwood.edu,Predominantly bachelor's-degree granting,main campus,1,Graduate,Private Non Profit,1,12,34.756344,-86.652705,Alabama
101994,Reid State Technical College,Evergreen,AL,36401,Council on Occupational Education,www.rstc.edu,Predominantely certificate-degree granting,main campus,1,Associate,Public,1,41,31.460265,-86.964797,Alabama
102030,Bishop State Community College,Mobile,AL,36603-5898,Southern Association of Colleges and Schools Commission on Colleges,www.bishop.edu,Predominantely certificate-degree granting,main campus,1,Associate,Public,1,12,30.693972,-88.056982,Alabama
102049,Samford University,Birmingham,AL,35229-2240,Southern Association of Colleges and Schools Commission on Colleges,www.samford.edu,Predominantly bachelor's-degree granting,main campus,1,Graduate,Private Non Profit,1,21,33.464128,-86.791799,Alabama
102058,Selma University,Selma,AL,36701,NULL,selmauniversity.edu,Predominantly bachelor's-degree granting,main campus,1,Graduate,Private Non Profit,1,32,32.420387,-87.032392,Alabama
102067,Shelton State Community College,Tuscaloosa,AL,35405-8522,Southern Association of Colleges and Schools Commission on Colleges,www.sheltonstate.edu,Predominantely associate's-degree granting,main campus,1,Associate,Public,1,12,33.120531,-87.56148,Alabama
102076,Snead State Community College,Boaz,AL,35957-0734,Southern Association of Colleges and Schools Commission on Colleges,www.snead.edu,Predominantely associate's-degree granting,main campus,1,Associate,Public,1,32,34.201495,-86.169897,Alabama
102094,University of South Alabama,Mobile,AL,36688-0002,Southern Association of Colleges and Schools Commission on Colleges,www.southalabama.edu,Predominantly bachelor's-degree granting,main campus,1,Graduate,Public,1,12,30.696033,-88.178711,Alabama
102234,Spring Hill College,Mobile,AL,36608-1791,Southern Association of Colleges and Schools Commission on Colleges,www.shc.edu,Predominantly bachelor's-degree granting,main campus,1,Graduate,Private Non Profit,1,12,30.694751,-88.138199,Alabama
102270,Stillman College,Tuscaloosa,AL,35401,Southern Association of Colleges and Schools Commission on Colleges,https://stillman.edu,Predominantly bachelor's-degree granting,main campus,1,Bachelors,Private Non Profit,1,12,33.200006,-87.585278,Alabama
102298,Talladega College,Talladega,AL,35160,Southern Association of Colleges and Schools Commission on Colleges,www.talladega.edu,Predominantly bachelor's-degree granting,main campus,1,Bachelors,Private Non Profit,1,32,33.433472,-86.112704,Alabama
102313,H Councill Trenholm State Community College,Montgomery,AL,36108-3199,Southern Association of Colleges and Schools Commission on Colleges,www.trenholmstate.edu,Predominantely certificate-degree granting,main campus,1,Associate,Public,1,12,32.350109,-86.343057,Alabama
102368,Troy University,Troy,AL,36082-0001,Southern Association of Colleges and Schools Commission on Colleges,www.troy.edu,Predominantly bachelor's-degree granting,main campus,4,Graduate,Public,1,33,31.800672,-85.957094,Alabama
102377,Tuskegee University,Tuskegee,AL,36088-1920,Southern Association of Colleges and Schools Commission on Colleges,www.tuskegee.edu,Predominantly bachelor's-degree granting,main campus,1,Graduate,Private Non Profit,1,32,32.4309,-85.708492,Alabama
102395,United States Sports Academy,Daphne,AL,36526-7055,Southern Association of Colleges and Schools Commission on Colleges,www.ussa.edu,Predominantly bachelor's-degree granting,main campus,1,Graduate,Private Non Profit,1,13,30.639329,-87.91163,Alabama
102429,Bevill State Community College,Jasper,AL,35501,Southern Association of Colleges and Schools Commission on Colleges,www.bscc.edu,Predominantely certificate-degree granting,main campus,1,Associate,Public,1,32,33.836929,-87.266406,Alabama
102553,University of Alaska Anchorage,Anchorage,AK,99508,Northwest Commission on Colleges and Universities,www.uaa.alaska.edu,Predominantly bachelor's-degree granting,main campus,1,Graduate,Public,2,11,61.190163,-149.82619,Alaska
102580,Alaska Bible College,Palmer,AK,99645,Association for Bibical Higher Educaiton,www.akbible.edu/,Predominantly bachelor's-degree granting,main campus,1,Bachelors,Private Non Profit,2,32,61.598553,-149.111972,Alaska
102614,University of Alaska Fairbanks,Fairbanks,AK,99775,Northwest Commission on Colleges and Universities,www.uaf.edu,Predominantly bachelor's-degree granting,main campus,1,Graduate,Public,2,23,64.85756,-147.823146,Alaska
102632,University of Alaska Southeast,Juneau,AK,99801-8697,Northwest Commission on Colleges and Universities,www.uas.alaska.edu,Predominantely certificate-degree granting,main campus,1,Graduate,Public,2,33,58.384846,-134.638255,Alaska
102669,Alaska Pacific University,Anchorage,AK,99508,Northwest Commission on Colleges and Universities,www.alaskapacific.edu,Predominantly bachelor's-degree granting,main campus,1,Graduate,Private Non Profit,2,11,61.190968,-149.804168,Alaska
102711,Alaska Vocational Technical Center,Seward,AK,99664-0889,Council on Occupational Education,www.avtec.edu/,Predominantely certificate-degree granting,main campus,1,Certificate,Public,2,43,60.110626,-149.444487,Alaska
102845,Charter College,Vancouver,WA,98683-7575,Accrediting Bureau of Health Education Schools,https://www.chartercollege.edu,Predominantely certificate-degree granting,main campus,1,Graduate,Private For Profit,53,12,45.617798,-122.494766,Washington
103501,Alaska Career College,Anchorage,AK,99507-1033,Accrediting Commission of Career Schools and Colleges,www.alaskacareercollege.edu,Predominantely certificate-degree granting,main campus,1,Associate,Private For Profit,2,11,61.181443,-149.856954,Alaska
103741,Empire Beauty School-Tucson,Tucson,AZ,85716,National Accrediting Commission of Career Arts and Sciences,www.empire.edu,Predominantely certificate-degree granting,Not main campus,11,Certificate,Private For Profit,4,11,32.235657,-110.927187,Arizona
103893,Carrington College-Phoenix North,Phoenix,AZ,85051-4063,Western Association of Schools and Colleges Accrediting Commission for Community and Junior Colleges,https://carrington.edu/,Predominantely certificate-degree granting,main campus,6,Associate,Private For Profit,4,11,33.561689,-112.116105,Arizona
103909,Carrington College-Mesa,Mesa,AZ,85210,Western Association of Schools and Colleges Accrediting Commission for Community and Junior Colleges,https://carrington.edu/,Predominantely certificate-degree granting,Not main campus,6,Associate,Private For Profit,4,11,33.39248,-111.853218,Arizona
103927,Carrington College-Tucson,Tucson,AZ,85745,Western Association of Schools and Colleges Accrediting Commission for Community and Junior Colleges,https://carrington.edu/,Predominantely certificate-degree granting,Not main campus,6,Certificate,Private For Profit,4,11,32.224391,-110.983056,Arizona
103945,CollegeAmerica-Flagstaff,Flagstaff,AZ,86001,Accrediting Commission of Career Schools and Colleges,www.collegeamerica.edu,Predominantely associate's-degree granting,main campus,3,Associate,Private Non Profit,4,13,35.194495,-111.657673,Arizona
103954,Arizona Academy of Beauty-East,Tucson,AZ,85712,National Accrediting Commission of Career Arts and Sciences,www.arizonaacademy.com,Predominantely certificate-degree granting,main campus,1,Certificate,Private For Profit,4,11,32.237253,-110.872305,Arizona
103963,Platt College-Arizona Automotive Institute Arizona,Glendale,AZ,85301-3579,Accrediting Commission of Career Schools and Colleges,www.aai.edu,Predominantely certificate-degree granting,Not main campus,24,Certificate,Private For Profit,4,21,33.537249,-112.157344,Arizona
104090,Brookline College-Phoenix,Phoenix,AZ,85021,Accrediting Bureau of Health Education Schools,www.brooklinecollege.edu,Predominantely certificate-degree granting,main campus,4,Graduate,Private For Profit,4,11,33.566102,-112.112473,Arizona
104151,Arizona State University-Tempe,Tempe,AZ,85287,Higher Learning Commission,www.asu.edu/,Predominantly bachelor's-degree granting,main campus,11,Graduate,Public,4,12,33.417721,-111.934383,Arizona
104160,Arizona Western College,Yuma,AZ,85365-8834,Higher Learning Commission,www.azwestern.edu,Predominantely certificate-degree granting,main campus,1,Associate,Public,4,13,32.689306,-114.495968,Arizona
104179,University of Arizona,Tucson,AZ,85721-0066,Higher Learning Commission,https://www.arizona.edu,Predominantly bachelor's-degree granting,main campus,2,Graduate,Public,4,11,32.232672,-110.950815,Arizona
104188,Southwest University of Visual Arts-Tucson,Tucson,AZ,85716,Higher Learning Commission,www.suva.edu,Predominantly bachelor's-degree granting,main campus,2,Bachelors,Private For Profit,4,11,32.252879,-110.927265,Arizona
104346,Central Arizona College,Coolidge,AZ,85128-9030,Higher Learning Commission,www.centralaz.edu,Predominantely certificate-degree granting,main campus,1,Associate,Public,4,41,32.957092,-111.652501,Arizona
104391,Charles of Italy Beauty College,Lake Havasu City,AZ,86403,National Accrediting Commission of Career Arts and Sciences,www.charlesofitaly.edu,Predominantely certificate-degree granting,main campus,1,Certificate,Private For Profit,4,13,34.477485,-114.332686,Arizona
104425,Cochise County Community College District,Sierra Vista,AZ,85635-2317,Higher Learning Commission,https://www.cochise.edu,Predominantely associate's-degree granting,main campus,1,Associate,Public,4,13,31.564597,-110.246946,Arizona
104434,Empire Beauty School-Flagstaff,Flagstaff,AZ,86004,National Accrediting Commission of Career Arts and Sciences,www.empire.edu,Predominantely certificate-degree granting,Not main campus,14,Certificate,Private For Profit,4,13,35.197151,-111.625936,Arizona
104443,Empire Beauty School-Chandler,Chandler,AZ,85224,National Accrediting Commission of Career Arts and Sciences,www.empire.edu,Predominantely certificate-degree granting,Not main campus,14,Certificate,Private For Profit,4,21,33.347586,-111.860423,Arizona
104504,Cortiva Institute-Tucson,Tucson,AZ,85710,NULL,www.cortiva.com/,Predominantely certificate-degree granting,main campus,1,Certificate,Private For Profit,4,11,32.21901,-110.856785,Arizona
104568,Avalon School of Cosmetology-Mesa,Mesa,AZ,85210,National Accrediting Commission of Career Arts and Sciences,avalon.edu/locations/mesa-az/,Predominantely certificate-degree granting,main campus,3,Certificate,Private For Profit,4,11,33.376583,-111.858305,Arizona
104577,Eastern Arizona College,Thatcher,AZ,85552-0769,Higher Learning Commission,www.eac.edu,Predominantely certificate-degree granting,main campus,1,Associate,Public,4,33,32.843664,-109.76234,Arizona
104586,Embry-Riddle Aeronautical University-Prescott,Prescott,AZ,86301-3720,Southern Association of Colleges and Schools Commission on Colleges,prescott.erau.edu/,Predominantly bachelor's-degree granting,Not main campus,2,Graduate,Private Non Profit,4,41,34.616766,-112.449741,Arizona
104665,School of Architecture at Taliesin,Scottsdale,AZ,85259,Higher Learning Commission,www.taliesin.edu,Entirely graduate-degree granting,main campus,1,Graduate,Private Non Profit,4,41,33.607097,-111.845411,Arizona
104708,Glendale Community College,Glendale,AZ,85302,Higher Learning Commission,www.gccaz.edu,Predominantely certificate-degree granting,main campus,1,Associate,Public,4,21,33.570226,-112.190735,Arizona
104717,Grand Canyon University,Phoenix,AZ,85017,Higher Learning Commission,www.gcu.edu,Predominantly bachelor's-degree granting,main campus,1,Graduate,Private For Profit,4,11,33.513231,-112.129929,Arizona
105145,GateWay Community College,Phoenix,AZ,85034,Higher Learning Commission,www.gatewaycc.edu,Predominantely certificate-degree granting,main campus,2,Associate,Public,4,11,33.449686,-111.997077,Arizona
105154,Mesa Community College,Mesa,AZ,85202,Higher Learning Commission,www.mesacc.edu,Predominantely certificate-degree granting,main campus,1,Associate,Public,4,11,33.390323,-111.871255,Arizona
105206,Mohave Community College,Kingman,AZ,86409-1238,Higher Learning Commission,https://www.mohave.edu,Predominantely associate's-degree granting,main campus,1,Associate,Public,4,41,35.270996,-114.029838,Arizona
105215,Universal Technical Institute of Arizona Inc-Motorcycle Mechanics Institute Division,Phoenix,AZ,85027,Accrediting Commission of Career Schools and Colleges,www.uti.edu/,Predominantely certificate-degree granting,main campus,3,Certificate,Private For Profit,4,11,33.684428,-112.121336,Arizona
105297,Dine College,Tsaile,AZ,86556,Higher Learning Commission,https://www.dinecollege.edu,Predominantely associate's-degree granting,main campus,1,Bachelors,Public,4,43,36.293328,-109.21684,Arizona
105330,Northern Arizona University,Flagstaff,AZ,86011-4092,Higher Learning Commission,https://nau.edu/,Predominantly bachelor's-degree granting,main campus,1,Graduate,Public,4,13,35.188449,-111.653724,Arizona
105349,Northland Pioneer College,Holbrook,AZ,86025-0610,Higher Learning Commission,www.npc.edu,Predominantely certificate-degree granting,main campus,1,Associate,Public,4,41,34.93031,-110.142199,Arizona
105367,Ottawa University-Phoenix,Phoenix,AZ,85021,Higher Learning Commission,www.ottawa.edu,Predominantly bachelor's-degree granting,Not main campus,5,Graduate,Private Non Profit,4,11,33.572173,-112.113001,Arizona
105428,Phoenix College,Phoenix,AZ,85013,Higher Learning Commission,www.phoenixcollege.edu,Predominantely certificate-degree granting,main campus,1,Associate,Public,4,11,33.481361,-112.088293,Arizona
105482,Cortiva Institute-Scottsdale,Scottsdale,AZ,85257,NULL,www.cortiva.com/,Predominantely certificate-degree granting,main campus,1,Certificate,Private For Profit,4,12,33.466153,-111.90807,Arizona
105525,Pima Community College,Tucson,AZ,85709-1275,Higher Learning Commission,www.pima.edu,Predominantely certificate-degree granting,main campus,1,Associate,Public,4,11,32.222125,-110.886659,Arizona
105534,Pima Medical Institute-Tucson,Tucson,AZ,85712,Accrediting Bureau of Health Education Schools,pmi.edu,Predominantely certificate-degree granting,main campus,13,Bachelors,Private For Profit,4,11,32.2502,-110.921301,Arizona
105543,Pima Medical Institute-Albuquerque,Albuquerque,NM,87110,Accrediting Bureau of Health Education Schools,pmi.edu,Predominantely certificate-degree granting,Not main campus,13,Associate,Private For Profit,35,11,35.104855,-106.59488,New Mexico
105589,Prescott College,Prescott,AZ,86301,Higher Learning Commission,https://www.prescott.edu,Predominantly bachelor's-degree granting,main campus,1,Graduate,Private Non Profit,4,13,34.5452,-112.477185,Arizona
105659,Refrigeration School Inc,Phoenix,AZ,85034-1816,Accrediting Commission of Career Schools and Colleges,https://www.refrigerationschool.com,Predominantely certificate-degree granting,main campus,1,Associate,Private For Profit,4,11,33.448692,-111.989357,Arizona
105668,Rio Salado College,Tempe,AZ,85281,Higher Learning Commission,www.rio.maricopa.edu,Predominantely certificate-degree granting,main campus,1,Associate,Public,4,12,33.413309,-111.97417,Arizona
105677,Roberto-Venn School of Luthiery,Phoenix,AZ,85007,Accrediting Commission of Career Schools and Colleges,www.roberto-venn.com,Predominantely certificate-degree granting,main campus,1,Certificate,Private For Profit,4,11,33.45489,-112.086161,Arizona
105747,Scottsdale Community College,Scottsdale,AZ,85256,Higher Learning Commission,www.scottsdalecc.edu,Predominantely associate's-degree granting,main campus,1,Associate,Public,4,41,33.51135,-111.885186,Arizona
105792,South Mountain Community College,Phoenix,AZ,85042,Higher Learning Commission,www.southmountaincc.edu,Predominantely associate's-degree granting,main campus,1,Associate,Public,4,11,33.382406,-112.032635,Arizona
105899,Arizona Christian University,Glendale,AZ,85306-3216,Higher Learning Commission,www.arizonachristian.edu,Predominantly bachelor's-degree granting,main campus,1,Bachelors,Private Non Profit,4,11,33.595117,-112.026211,Arizona
106041,Universal Technical Institute of Arizona Inc,Avondale,AZ,85323,Accrediting Commission of Career Schools and Colleges,www.uti.edu,Predominantely associate's-degree granting,main campus,6,Associate,Private For Profit,4,22,33.453005,-112.288123,Arizona
106111,Empire Beauty School-NW Phoenix,Phoenix,AZ,85051,National Accrediting Commission of Career Arts and Sciences,www.empire.edu,Predominantely certificate-degree granting,Not main campus,10,Certificate,Private For Profit,4,11,33.538093,-112.118168,Arizona
106148,Yavapai College,Prescott,AZ,86301,Higher Learning Commission,www.YC.EDU,Predominantely certificate-degree granting,main campus,1,Associate,Public,4,13,34.547495,-112.453395,Arizona
106245,University of Arkansas at Little Rock,Little Rock,AR,72204,Higher Learning Commission,ualr.edu/www/,Predominantly bachelor's-degree granting,main campus,1,Graduate,Public,5,12,34.723254,-92.339778,Arkansas
106263,University of Arkansas for Medical Sciences,Little Rock,AR,72205-7199,Higher Learning Commission,www.uams.edu,Predominantly bachelor's-degree granting,main campus,1,Graduate,Public,5,12,34.749048,-92.320046,Arkansas
106306,Arkansas Baptist College,Little Rock,AR,72202-6068,Higher Learning Commission,www.arkansasbaptist.edu,Predominantely associate's-degree granting,main campus,1,Bachelors,Private Non Profit,5,12,34.734751,-92.290555,Arkansas
106315,Arkansas Beauty School-Little Rock,Little Rock,AR,72209,National Accrediting Commission of Career Arts and Sciences,arkbeautyschool.com,Predominantely certificate-degree granting,main campus,1,Certificate,Private For Profit,5,12,34.672171,-92.343366,Arkansas
106324,Arkansas Beauty College,Russellville,AR,72801,Accrediting Commission of Career Schools and Colleges,https://www.arkansasbeautycollege.us/,Predominantely certificate-degree granting,main campus,1,Certificate,Private For Profit,5,33,35.27902,-93.135369,Arkansas
106342,Lyon College,Batesville,AR,72501,Higher Learning Commission,www.lyon.edu,Predominantly bachelor's-degree granting,main campus,1,Bachelors,Private Non Profit,5,33,35.777619,-91.625354,Arkansas
106351,Arkansas College of Barbering and Hair Design,North Little Rock,AR,72114,Accrediting Commission of Career Schools and Colleges,www.arkansascollegeofbarbering.com,Predominantely certificate-degree granting,main campus,2,Certificate,Private For Profit,5,13,34.753843,-92.266429,Arkansas
106360,Arthur's Beauty College Inc-Fort Smith,Fort Smith,AR,72901-3342,National Accrediting Commission of Career Arts and Sciences,www.arthursbeautycollege.com,Predominantely certificate-degree granting,main campus,2,Certificate,Private For Profit,5,13,35.379955,-94.410967,Arkansas
106397,University of Arkansas,Fayetteville,AR,72701,Higher Learning Commission,https://www.uark.edu,Predominantly bachelor's-degree granting,main campus,1,Graduate,Public,5,13,36.070009,-94.176981,Arkansas
106412,University of Arkansas at Pine Bluff,Pine Bluff,AR,71601,Higher Learning Commission,www.uapb.edu,Predominantly bachelor's-degree granting,main campus,1,Graduate,Public,5,13,34.244031,-92.018683,Arkansas
106449,Arkansas State University-Beebe,Beebe,AR,72012-1000,Higher Learning Commission,www.asub.edu,Predominantely certificate-degree granting,main campus,1,Associate,Public,5,31,35.074176,-91.895351,Arkansas
106458,Arkansas State University-Main Campus,Jonesboro,AR,72401,Higher Learning Commission,www.astate.edu/,Predominantly bachelor's-degree granting,main campus,1,Graduate,Public,5,13,35.842388,-90.679988,Arkansas
106467,Arkansas Tech University,Russellville,AR,72801-2222,Higher Learning Commission,www.atu.edu,Predominantly bachelor's-degree granting,main campus,1,Graduate,Public,5,33,35.293237,-93.13562,Arkansas
106485,University of Arkansas at Monticello,Monticello,AR,71656,Higher Learning Commission,www.uamont.edu/,Predominantely certificate-degree granting,main campus,1,Graduate,Public,5,33,33.590909,-91.811153,Arkansas
106494,Arthur's Beauty College Inc-Jacksonville,Jacksonville,AR,72076,National Accrediting Commission of Career Arts and Sciences,arthursbeautycollege.com,Predominantely certificate-degree granting,main campus,2,Certificate,Private For Profit,5,21,34.891572,-92.102579,Arkansas
106546,Baptist Health College Little Rock,Little Rock,AR,72210-2827,Accrediting Bureau of Health Education Schools,https://www.bhclr.edu,Predominantely associate's-degree granting,main campus,1,Associate,Private Non Profit,5,12,34.713115,-92.40692,Arkansas
106625,Black River Technical College,Pocahontas,AR,72455,Higher Learning Commission,www.blackrivertech.edu,Predominantely certificate-degree granting,main campus,1,Associate,Public,5,41,36.239793,-90.951033,Arkansas
106704,University of Central Arkansas,Conway,AR,72035-0001,Higher Learning Commission,www.uca.edu,Predominantly bachelor's-degree granting,main campus,1,Graduate,Public,5,13,35.077945,-92.457672,Arkansas
106713,Central Baptist College,Conway,AR,72034,Higher Learning Commission,www.cbc.edu,Predominantly bachelor's-degree granting,main campus,1,Bachelors,Private Non Profit,5,13,35.083838,-92.445021,Arkansas
106795,Cossatot Community College of the University of Arkansas,De Queen,AR,71832,Higher Learning Commission,www.cccua.edu/,Predominantely certificate-degree granting,main campus,1,Associate,Public,5,41,34.043389,-94.3673,Arkansas
106810,Crowley's Ridge College,Paragould,AR,72450,Higher Learning Commission,www.crc.edu/,Predominantly bachelor's-degree granting,main campus,1,Bachelors,Private Non Profit,5,41,36.064845,-90.584395,Arkansas
106829,Crowley's Ridge Technical Institute,Forrest City,AR,72335-0925,Council on Occupational Education,www.crti.tec.ar.us,Predominantely certificate-degree granting,main campus,1,Certificate,Public,5,32,35.039816,-90.767321,Arkansas
106883,East Arkansas Community College,Forrest City,AR,72335-2204,Higher Learning Commission,https://WWW.EACC.EDU,Predominantely certificate-degree granting,main campus,1,Associate,Public,5,32,35.041655,-90.767726,Arkansas
106892,Eastern College of Health Vocations-Little Rock,Little Rock,AR,72205,Accrediting Bureau of Health Education Schools,www.easterncollege.edu,Predominantely certificate-degree granting,main campus,2,Certificate,Private For Profit,5,12,34.75128,-92.341891,Arkansas
106908,Imagine-Paul Mitchell Partner School,North Little Rock,AR,72117,National Accrediting Commission of Career Arts and Sciences,paulmitchell.edu/littlerock,Predominantely certificate-degree granting,main campus,1,Certificate,Private For Profit,5,13,34.789913,-92.222202,Arkansas
106980,National Park College,Hot Springs,AR,71913,Higher Learning Commission,www.np.edu,Predominantely certificate-degree granting,main campus,1,Associate,Public,5,23,34.512687,-93.119248,Arkansas
106999,University of Arkansas Community College-Batesville,Batesville,AR,72503-3350,Higher Learning Commission,www.uaccb.edu,Predominantely certificate-degree granting,main campus,1,Associate,Public,5,33,35.792923,-91.615852,Arkansas
107044,Harding University,Searcy,AR,72149-5615,Higher Learning Commission,www.harding.edu,Predominantly bachelor's-degree granting,main campus,2,Graduate,Private Non Profit,5,32,35.247337,-91.726041,Arkansas
107071,Henderson State University,Arkadelphia,AR,71999-0001,Higher Learning Commission,https://www.hsu.edu,Predominantly bachelor's-degree granting,main campus,1,Graduate,Public,5,32,34.128155,-93.059703,Arkansas
107080,Hendrix College,Conway,AR,72032-3080,Higher Learning Commission,www.hendrix.edu,Predominantly bachelor's-degree granting,main campus,1,Graduate,Private Non Profit,5,13,35.101565,-92.443256,Arkansas
107099,Hot Springs Beauty College,Hot Springs,AR,71901,National Accrediting Commission of Career Arts and Sciences,hotspringsbeautycollege.com,Predominantely certificate-degree granting,main campus,1,Certificate,Private For Profit,5,13,34.496057,-93.037277,Arkansas
107123,Jefferson Regional Medical Center School of Nursing,Pine Bluff,AR,71603,Accrediting Bureau of Health Education Schools,www.jrmc.org,Predominantely associate's-degree granting,main campus,1,Associate,Private Non Profit,5,13,34.187831,-92.018045,Arkansas
107141,John Brown University,Siloam Springs,AR,72761,Higher Learning Commission,www.jbu.edu,Predominantly bachelor's-degree granting,main campus,1,Graduate,Private Non Profit,5,32,36.189812,-94.560283,Arkansas
107220,Career Academy of Hair Design,Springdale,AR,72764-7128,National Accrediting Commission of Career Arts and Sciences,www.beautynwa.com,Predominantely certificate-degree granting,main campus,5,Certificate,Private For Profit,5,13,36.167605,-94.12947,Arkansas
107293,Academy of Salon and Spa,Fort Smith,AR,72901,National Accrediting Commission of Career Arts and Sciences,www.academysalonspa.com,Predominantely certificate-degree granting,main campus,1,Certificate,Private For Profit,5,13,35.38097,-94.41616,Arkansas
107318,Arkansas State University Mid-South,West Memphis,AR,72301-3829,Higher Learning Commission,www.asumidsouth.edu,Predominantely certificate-degree granting,main campus,1,Associate,Public,5,21,35.145736,-90.22285,Arkansas
107327,Arkansas Northeastern College,Blytheville,AR,72316-1109,Higher Learning Commission,www.anc.edu,Predominantely certificate-degree granting,main campus,1,Associate,Public,5,41,35.898597,-89.921005,Arkansas
107442,New Tyler Barber College Inc,North Little Rock,AR,72114-4973,Accrediting Commission of Career Schools and Colleges,newtylerbarbercollege.edu,Predominantely certificate-degree granting,main campus,1,Certificate,Private For Profit,5,13,34.760085,-92.254171,Arkansas
107460,North Arkansas College,Harrison,AR,72601-5508,Higher Learning Commission,www.northark.edu,Predominantely certificate-degree granting,main campus,1,Associate,Public,5,33,36.219909,-93.08844,Arkansas
107488,Northwest Technical Institute,Springdale,AR,72764,Council on Occupational Education,www.nwti.edu,Predominantely certificate-degree granting,main campus,1,Certificate,Public,5,13,36.178032,-94.115346,Arkansas
107512,Ouachita Baptist University,Arkadelphia,AR,71998-0001,Higher Learning Commission,www.obu.edu,Predominantly bachelor's-degree granting,main campus,1,Bachelors,Private Non Profit,5,32,34.126093,-93.052471,Arkansas
107521,Arkansas State University Three Rivers,Malvern,AR,72104-0816,Higher Learning Commission,www.coto.edu,Predominantely certificate-degree granting,main campus,1,Associate,Public,5,31,34.378745,-92.821416,Arkansas
107549,Ozarka College,Melbourne,AR,72556-0010,Higher Learning Commission,www.ozarka.edu,Predominantely certificate-degree granting,main campus,1,Associate,Public,5,43,36.053031,-91.896355,Arkansas
107558,University of the Ozarks,Clarksville,AR,72830,Higher Learning Commission,https://www.ozarks.edu,Predominantly bachelor's-degree granting,main campus,1,Bachelors,Private Non Profit,5,33,35.476278,-93.467221,Arkansas
107585,University of Arkansas Community College-Morrilton,Morrilton,AR,72110,Higher Learning Commission,www.uaccm.edu,Predominantely certificate-degree granting,main campus,1,Associate,Public,5,32,35.172136,-92.728507,Arkansas
107600,Philander Smith College,Little Rock,AR,72202-3799,Higher Learning Commission,https://www.philander.edu,Predominantly bachelor's-degree granting,main campus,1,Bachelors,Private Non Profit,5,12,34.737131,-92.283015,Arkansas
107619,Phillips Community College of the University of Arkansas,Helena,AR,72342-0785,Higher Learning Commission,www.pccua.edu,Predominantely certificate-degree granting,main campus,1,Associate,Public,5,41,34.546155,-90.616884,Arkansas
107637,Southeast Arkansas College,Pine Bluff,AR,71603,Higher Learning Commission,www.seark.edu,Predominantely certificate-degree granting,main campus,1,Associate,Public,5,13,34.210309,-92.025936,Arkansas
107655,Professional Cosmetology Education Center,El Dorado,AR,71730-4009,National Accrediting Commission of Career Arts and Sciences,www.pcec.edu,Predominantely certificate-degree granting,main campus,1,Certificate,Private For Profit,5,33,33.216032,-92.664101,Arkansas
107664,University of Arkansas-Pulaski Technical College,North Little Rock,AR,72118-3347,Higher Learning Commission,uaptc.edu,Predominantely associate's-degree granting,main campus,1,Associate,Public,5,13,34.782783,-92.299184,Arkansas
107725,University of Arknsas Hope-Texarkana,Hope,AR,71801,Higher Learning Commission,www.uaht.edu,Predominantely certificate-degree granting,main campus,2,Associate,Public,5,32,33.641665,-93.596762,Arkansas
107743,University of Arkansas Community College Rich Mountain,Mena,AR,71953,Higher Learning Commission,www.uarichmountain.edu,Predominantely certificate-degree granting,main campus,1,Associate,Public,5,33,34.591449,-94.219799,Arkansas
107789,Paul Mitchell the School-Arkansas,Fayetteville,AR,72703,National Accrediting Commission of Career Arts and Sciences,https://paulmitchell.edu/arkansas/,Predominantely certificate-degree granting,main campus,1,Certificate,Private For Profit,5,13,36.126373,-94.153892,Arkansas
107831,Searcy Beauty College,Searcy,AR,72143,National Accrediting Commission of Career Arts and Sciences,searcybeautycollege.com/,Predominantely certificate-degree granting,main campus,1,Certificate,Private For Profit,5,32,35.239148,-91.735135,Arkansas
107840,Shorter College,N Little Rock,AR,72114,Transnational Association of Christian Colleges and Schools,www.shortercollege.edu,Predominantely associate's-degree granting,main campus,1,Associate,Private Non Profit,5,13,34.75933,-92.261331,Arkansas
107877,Williams Baptist University,Walnut Ridge,AR,72476,Higher Learning Commission,https://williamsbaptistuniversity.com/,Predominantly bachelor's-degree granting,main campus,1,Bachelors,Private Non Profit,5,42,36.125676,-90.940277,Arkansas
107974,South Arkansas Community College,El Dorado,AR,71731-7010,Higher Learning Commission,www.southark.edu,Predominantely certificate-degree granting,main campus,1,Associate,Public,5,33,33.209446,-92.666087,Arkansas
107983,Southern Arkansas University Main Campus,Magnolia,AR,71753,Higher Learning Commission,https://www.saumag.edu,Predominantly bachelor's-degree granting,main campus,1,Graduate,Public,5,33,33.291618,-93.235922,Arkansas
107992,Southern Arkansas University Tech,Camden,AR,71701-1906,Higher Learning Commission,www.sautech.edu,Predominantely certificate-degree granting,main campus,1,Associate,Public,5,42,33.628367,-92.721629,Arkansas
108065,Velvatex College of Beauty Culture,Little Rock,AR,72202-5452,National Accrediting Commission of Career Arts and Sciences,www.velvatexcollege.com,Predominantely certificate-degree granting,main campus,1,Certificate,Private For Profit,5,12,34.735685,-92.289597,Arkansas
108092,University of Arkansas-Fort Smith,Fort Smith,AR,72913-3649,Higher Learning Commission,uafs.edu/,Predominantly bachelor's-degree granting,main campus,1,Graduate,Public,5,13,35.384184,-94.373729,Arkansas
108232,Academy of Art University,San Francisco,CA,94105,Western Association of Schools and Colleges Senior Colleges and University Commission,www.academyart.edu,Predominantly bachelor's-degree granting,main campus,1,Graduate,Private For Profit,6,11,37.787943,-122.400578,California
108269,Academy of Chinese Culture and Health Sciences,Oakland,CA,94612,Accrediting Commission for Acupuncture and Oriental Medicine,www.acchs.edu,Entirely graduate-degree granting,main campus,1,Graduate,Private Non Profit,6,11,37.805972,-122.269839,California
108348,The Academy of Radio and TV Broadcasting,Huntington Beach,CA,92647,NULL,WWW.ARBRADIO.COM,Predominantely certificate-degree granting,main campus,1,Certificate,Private For Profit,6,21,33.729535,-117.987762,California
108649,Avalon School of Cosmetology-Alameda,Alameda,CA,94501,National Accrediting Commission of Career Arts and Sciences,avalon.edu/locations/alameda-ca/,Predominantely certificate-degree granting,main campus,1,Certificate,Private For Profit,6,21,37.764203,-122.243566,California
108667,College of Alameda,Alameda,CA,94501,Western Association of Schools and Colleges Accrediting Commission for Community and Junior Colleges,alameda.peralta.edu/,Predominantely associate's-degree granting,main campus,1,Associate,Public,6,21,37.781017,-122.279303,California
108807,Allan Hancock College,Santa Maria,CA,93454-6399,Western Association of Schools and Colleges Accrediting Commission for Community and Junior Colleges,www.hancockcollege.edu/,Predominantely associate's-degree granting,main campus,1,Associate,Public,6,12,34.943716,-120.421144,California
108852,American Academy of Dramatic Arts-Los Angeles,Los Angeles,CA,90028,Middle States Commission on Higher Education,www.aada.edu,Predominantely associate's-degree granting,Not main campus,2,Associate,Private Non Profit,6,11,34.095378,-118.343701,California
108861,American Baptist Seminary of the West,Berkeley,CA,94704-3029,Commission on Accrediting of the Association of Theological Schools,www.absw.edu,Entirely graduate-degree granting,main campus,1,Graduate,Private Non Profit,6,12,37.865252,-122.256149,California
108870,American Film Institute Conservatory,Los Angeles,CA,90027-1625,Western Association of Schools and Colleges Senior Colleges and University Commission,www.AFI.com,Entirely graduate-degree granting,main campus,1,Graduate,Private Non Profit,6,11,34.10767,-118.310018,California
108977,American Beauty College,West Covina,CA,91790,National Accrediting Commission of Career Arts and Sciences,www.americanbeautycollege.com,Predominantely certificate-degree granting,main campus,1,Certificate,Private For Profit,6,21,34.069367,-117.936959,California
109040,American Career College-Los Angeles,Los Angeles,CA,90004,Accrediting Bureau of Health Education Schools,americancareercollege.edu,Predominantely certificate-degree granting,main campus,2,Associate,Private For Profit,6,11,34.079323,-118.292481,California
109086,American Conservatory Theater,San Francisco,CA,94108-5834,Western Association of Schools and Colleges Senior Colleges and University Commission,www.act-sf.org,Predominantely certificate-degree granting,main campus,1,Graduate,Private Non Profit,6,11,37.787343,-122.40475,California
109208,American River College,Sacramento,CA,95841-4286,Western Association of Schools and Colleges Accrediting Commission for Community and Junior Colleges,https://www.arc.losrios.edu/,Predominantely certificate-degree granting,main campus,1,Associate,Public,6,21,38.65085,-121.349672,California
109350,Antelope Valley College,Lancaster,CA,93536-5426,Western Association of Schools and Colleges Accrediting Commission for Community and Junior Colleges,www.avc.edu,Predominantely associate's-degree granting,main campus,1,Associate,Public,6,21,34.676207,-118.186166,California
109651,Art Center College of Design,Pasadena,CA,91103,Western Association of Schools and Colleges Senior Colleges and University Commission,www.artcenter.edu,Predominantly bachelor's-degree granting,main campus,1,Graduate,Private Non Profit,6,12,34.169031,-118.185102,California
109721,Associated Technical College-Los Angeles,Los Angeles,CA,90017-1604,Accrediting Commission of Career Schools and Colleges,www.atcla.edu,Predominantely certificate-degree granting,main campus,1,Certificate,Private For Profit,6,11,34.056102,-118.272364,California
109730,Associated Technical College-San Diego,San Diego,CA,92101,Accrediting Commission of Career Schools and Colleges,www.atcsd.edu,Predominantely certificate-degree granting,main campus,1,Certificate,Private For Profit,6,11,32.715375,-117.157988,California
109785,Azusa Pacific University,Azusa,CA,91702-7000,Western Association of Schools and Colleges Senior Colleges and University Commission,www.apu.edu,Predominantly bachelor's-degree granting,main campus,1,Graduate,Private Non Profit,6,21,34.130047,-117.888375,California
109819,Bakersfield College,Bakersfield,CA,93305-1299,Western Association of Schools and Colleges Accrediting Commission for Community and Junior Colleges,www.bakersfieldcollege.edu/,Predominantely certificate-degree granting,main campus,1,Bachelors,Public,6,11,35.40911,-118.973753,California
109907,Barstow Community College,Barstow,CA,92311,Western Association of Schools and Colleges Accrediting Commission for Community and Junior Colleges,www.barstow.edu,Predominantely associate's-degree granting,main campus,1,Associate,Public,6,32,34.870285,-117.023412,California
109934,Bellus Academy-Chula Vista,Chula Vista,CA,91911,National Accrediting Commission of Career Arts and Sciences,www.bellusacademy.edu,Predominantely certificate-degree granting,main campus,1,Certificate,Private For Profit,6,21,32.614773,-117.083738,California
110060,Bethesda University,Anaheim,CA,92801,Transnational Association of Christian Colleges and Schools,www.buc.edu,Predominantly bachelor's-degree granting,main campus,1,Graduate,Private Non Profit,6,11,33.842295,-117.941323,California
110097,Biola University,La Mirada,CA,90639-0001,Western Association of Schools and Colleges Senior Colleges and University Commission,https://www.biola.edu,Predominantly bachelor's-degree granting,main campus,1,Graduate,Private Non Profit,6,21,33.906203,-118.014374,California
110194,Brownson Technical School,Anaheim,CA,92805,Accrediting Commission of Career Schools and Colleges,https://brownson.edu,Predominantely certificate-degree granting,main campus,1,Certificate,Private For Profit,6,11,33.819032,-117.905774,California
110219,Bryan University,Tempe,AZ,85281,Accrediting Commission of Career Schools and Colleges,bryanuniversity.edu,Predominantely associate's-degree granting,main campus,1,Bachelors,Private For Profit,4,12,33.437779,-111.944197,Arizona
110246,Butte College,Oroville,CA,95965-8399,Western Association of Schools and Colleges Accrediting Commission for Community and Junior Colleges,www.butte.edu,Predominantely associate's-degree granting,main campus,1,Associate,Public,6,42,39.649782,-121.644831,California
110316,California Institute of Integral Studies,San Francisco,CA,94103,Western Association of Schools and Colleges Senior Colleges and University Commission,www.ciis.edu,Predominantly bachelor's-degree granting,main campus,1,Graduate,Private Non Profit,6,11,37.774924,-122.416102,California
110334,Cabrillo College,Aptos,CA,95003,Western Association of Schools and Colleges Accrediting Commission for Community and Junior Colleges,www.cabrillo.edu,Predominantely associate's-degree granting,main campus,1,Associate,Public,6,22,36.989448,-121.924797,California
110361,California Baptist University,Riverside,CA,92504-3297,Western Association of Schools and Colleges Senior Colleges and University Commission,www.calbaptist.edu,Predominantly bachelor's-degree granting,main campus,1,Graduate,Private Non Profit,6,11,33.929321,-117.425619,California
110370,California College of the Arts,San Francisco,CA,94107-2247,Western Association of Schools and Colleges Senior Colleges and University Commission,www.cca.edu,Predominantly bachelor's-degree granting,main campus,1,Graduate,Private Non Profit,6,11,37.767485,-122.399451,California
110398,University of California-Hastings College of Law,San Francisco,CA,94102-4978,Western Association of Schools and Colleges Senior Colleges and University Commission,www.uchastings.edu,Entirely graduate-degree granting,main campus,1,Graduate,Public,6,11,37.781137,-122.4157,California
110404,California Institute of Technology,Pasadena,CA,91125,Western Association of Schools and Colleges Senior Colleges and University Commission,www.caltech.edu,Predominantly bachelor's-degree granting,main campus,1,Graduate,Private Non Profit,6,12,34.137349,-118.125878,California
110413,California Lutheran University,Thousand Oaks,CA,91360-2787,Western Association of Schools and Colleges Senior Colleges and University Commission,www.callutheran.edu/,Predominantly bachelor's-degree granting,main campus,1,Graduate,Private Non Profit,6,12,34.224566,-118.878924,California
110422,California Polytechnic State University-San Luis Obispo,San Luis Obispo,CA,93407,Western Association of Schools and Colleges Senior Colleges and University Commission,calpoly.edu,Predominantly bachelor's-degree granting,main campus,1,Graduate,Public,6,23,35.299513,-120.657311,California
110468,Alliant International University-San Diego,San Diego,CA,92131,Western Association of Schools and Colleges Senior Colleges and University Commission,www.alliant.edu,Predominantely certificate-degree granting,main campus,6,Graduate,Private For Profit,6,11,32.897056,-117.094398,California
110486,California State University-Bakersfield,Bakersfield,CA,93311-1099,Western Association of Schools and Colleges Senior Colleges and University Commission,www.csub.edu,Predominantly bachelor's-degree granting,main campus,1,Graduate,Public,6,11,35.350005,-119.104711,California
110495,California State University-Stanislaus,Turlock,CA,95382-0299,Western Association of Schools and Colleges Senior Colleges and University Commission,https://www.csustan.edu,Predominantly bachelor's-degree granting,main campus,1,Graduate,Public,6,23,37.52577,-120.852511,California
110510,California State University-San Bernardino,San Bernardino,CA,92407-2393,Western Association of Schools and Colleges Senior Colleges and University Commission,www.csusb.edu,Predominantly bachelor's-degree granting,main campus,1,Graduate,Public,6,12,34.182622,-117.323801,California
110529,California State Polytechnic University-Pomona,Pomona,CA,91768,Western Association of Schools and Colleges Senior Colleges and University Commission,www.cpp.edu,Predominantly bachelor's-degree granting,main campus,1,Graduate,Public,6,21,34.057912,-117.821476,California
110538,California State University-Chico,Chico,CA,95929-0150,Western Association of Schools and Colleges Senior Colleges and University Commission,www.csuchico.edu,Predominantly bachelor's-degree granting,main campus,1,Graduate,Public,6,13,39.729712,-121.844859,California
110547,California State University-Dominguez Hills,Carson,CA,90747-0005,Western Association of Schools and Colleges Senior Colleges and University Commission,https://www.csudh.edu,Predominantly bachelor's-degree granting,main campus,1,Graduate,Public,6,13,33.864766,-118.255917,California
110556,California State University-Fresno,Fresno,CA,93740,Western Association of Schools and Colleges Senior Colleges and University Commission,www.fresnostate.edu/,Predominantly bachelor's-degree granting,main campus,1,Graduate,Public,6,11,36.811154,-119.744569,California
110565,California State University-Fullerton,Fullerton,CA,92831-3599,Western Association of Schools and Colleges Senior Colleges and University Commission,www.fullerton.edu,Predominantly bachelor's-degree granting,main campus,1,Graduate,Public,6,21,33.881506,-117.885446,California
110574,California State University-East Bay,Hayward,CA,94542,Western Association of Schools and Colleges Senior Colleges and University Commission,www.csueastbay.edu,Predominantly bachelor's-degree granting,main campus,1,Graduate,Public,6,12,37.657694,-122.054135,California
110583,California State University-Long Beach,Long Beach,CA,90840-0115,Western Association of Schools and Colleges Senior Colleges and University Commission,www.csulb.edu,Predominantly bachelor's-degree granting,main campus,1,Graduate,Public,6,11,33.782818,-118.11204,California
110592,California State University-Los Angeles,Los Angeles,CA,90032-8506,Western Association of Schools and Colleges Senior Colleges and University Commission,www.calstatela.edu,Predominantly bachelor's-degree granting,main campus,1,Graduate,Public,6,11,34.066927,-118.168965,California
110608,California State University-Northridge,Northridge,CA,91330,Western Association of Schools and Colleges Senior Colleges and University Commission,https://www.csun.edu,Predominantly bachelor's-degree granting,main campus,1,Graduate,Public,6,11,34.240126,-118.529319,California
110617,California State University-Sacramento,Sacramento,CA,95819-2694,Western Association of Schools and Colleges Senior Colleges and University Commission,www.csus.edu,Predominantly bachelor's-degree granting,main campus,1,Graduate,Public,6,11,38.559415,-121.423549,California
110635,University of California-Berkeley,Berkeley,CA,94720,Western Association of Schools and Colleges Senior Colleges and University Commission,www.berkeley.edu,Predominantly bachelor's-degree granting,main campus,1,Graduate,Public,6,12,37.871918,-122.260463,California
110644,University of California-Davis,Davis,CA,95616-8678,Western Association of Schools and Colleges Senior Colleges and University Commission,ucdavis.edu,Predominantly bachelor's-degree granting,main campus,1,Graduate,Public,6,23,38.539667,-121.749567,California
110653,University of California-Irvine,Irvine,CA,92697,Western Association of Schools and Colleges Senior Colleges and University Commission,www.uci.edu/,Predominantly bachelor's-degree granting,main campus,1,Graduate,Public,6,11,33.648434,-117.841248,California
110662,University of California-Los Angeles,Los Angeles,CA,90095-1405,Western Association of Schools and Colleges Senior Colleges and University Commission,www.ucla.edu/,Predominantly bachelor's-degree granting,main campus,1,Graduate,Public,6,11,34.068892,-118.443901,California
110671,University of California-Riverside,Riverside,CA,92521,Western Association of Schools and Colleges Senior Colleges and University Commission,www.ucr.edu/,Predominantly bachelor's-degree granting,main campus,1,Graduate,Public,6,11,33.97246,-117.32741,California
110680,University of California-San Diego,La Jolla,CA,92093,Western Association of Schools and Colleges Senior Colleges and University Commission,www.ucsd.edu,Predominantly bachelor's-degree granting,main campus,1,Graduate,Public,6,11,32.877749,-117.235866,California
110699,University of California-San Francisco,San Francisco,CA,94143-0244,Western Association of Schools and Colleges Senior Colleges and University Commission,ucsf.edu,Entirely graduate-degree granting,main campus,1,Graduate,Public,6,11,37.763737,-122.458489,California
110705,University of California-Santa Barbara,Santa Barbara,CA,93106,Western Association of Schools and Colleges Senior Colleges and University Commission,www.ucsb.edu,Predominantly bachelor's-degree granting,main campus,1,Graduate,Public,6,22,34.416297,-119.846426,California
110714,University of California-Santa Cruz,Santa Cruz,CA,95064-1011,Western Association of Schools and Colleges Senior Colleges and University Commission,www.ucsc.edu/,Predominantly bachelor's-degree granting,main campus,1,Graduate,Public,6,13,36.995584,-122.058801,California
110778,Sofia University,Palo Alto,CA,94303,Western Association of Schools and Colleges Senior Colleges and University Commission,www.sofia.edu,Predominantly bachelor's-degree granting,main campus,1,Graduate,Private For Profit,6,13,37.430325,-122.10866,California
110875,California Beauty School,Modesto,CA,95354,National Accrediting Commission of Career Arts and Sciences,www.calbeautycollege.edu,Predominantely certificate-degree granting,main campus,1,Certificate,Private For Profit,6,12,37.645217,-120.99689,California
110918,California Christian College,Fresno,CA,93727,Transnational Association of Christian Colleges and Schools,www.calchristiancollege.edu,Predominantly bachelor's-degree granting,main campus,1,Bachelors,Private Non Profit,6,11,36.749366,-119.711123,California
110936,California Coast University,Santa Ana,CA,92701,Distance Education Accrediting Commission,https://www.calcoast.edu,Not classified,main campus,1,Non-degree granting,Private For Profit,6,11,33.753135,-117.86524,California
111054,California Hair Design Academy,La Mesa,CA,91942-5055,National Accrediting Commission of Career Arts and Sciences,https://chdaschools.com,Predominantely certificate-degree granting,main campus,1,Certificate,Private For Profit,6,21,32.765221,-117.024261,California
111081,California Institute of the Arts,Valencia,CA,91355-2397,Western Association of Schools and Colleges Senior Colleges and University Commission,www.calarts.edu,Predominantly bachelor's-degree granting,main campus,1,Graduate,Private Non Profit,6,21,34.39327,-118.566837,California
111188,California State University Maritime Academy,Vallejo,CA,94590-8181,Western Association of Schools and Colleges Senior Colleges and University Commission,https://www.csum.edu,Predominantly bachelor's-degree granting,main campus,1,Graduate,Public,6,12,38.069061,-122.231551,California
111391,California Western School of Law,San Diego,CA,92101-3046,Western Association of Schools and Colleges Senior Colleges and University Commission,https://www.cwsl.edu,Entirely graduate-degree granting,main campus,1,Graduate,Private Non Profit,6,11,32.722192,-117.162416,California
111434,Canada College,Redwood City,CA,94061-1099,Western Association of Schools and Colleges Accrediting Commission for Community and Junior Colleges,canadacollege.edu,Predominantely associate's-degree granting,main campus,1,Associate,Public,6,21,37.44877,-122.265398,California
111461,College of the Canyons,Santa Clarita,CA,91355-1899,Western Association of Schools and Colleges Accrediting Commission for Community and Junior Colleges,www.canyons.edu,Predominantely associate's-degree granting,main campus,1,Associate,Public,6,21,34.403993,-118.568698,California
111513,Career Academy of Beauty,Garden Grove,CA,92845,National Accrediting Commission of Career Arts and Sciences,CAofB.com,Predominantely certificate-degree granting,main campus,1,Certificate,Private For Profit,6,21,33.781018,-118.031697,California
111638,Casa Loma College-Van Nuys,Van Nuys,CA,91405,Accrediting Bureau of Health Education Schools,https://www.casalomacollege.edu,Predominantely associate's-degree granting,main campus,1,Associate,Private Non Profit,6,11,34.192829,-118.457781,California
111708,CET-San Diego,San Diego,CA,92102,Council on Occupational Education,https://www.cetweb.edu,Predominantely certificate-degree granting,Not main campus,12,Certificate,Private Non Profit,6,11,32.711302,-117.105328,California
111717,CET-San Jose,San Jose,CA,95110,Council on Occupational Education,https://cetweb.edu,Predominantely certificate-degree granting,main campus,12,Certificate,Private Non Profit,6,11,37.322723,-121.88698,California
111726,CET-El Centro,El Centro,CA,92243,Council on Occupational Education,https://cetweb.edu,Predominantely certificate-degree granting,Not main campus,12,Certificate,Private Non Profit,6,13,32.790908,-115.549079,California
111744,CET-Colton,Colton,CA,92324,Council on Occupational Education,https://cetweb.edu,Predominantely certificate-degree granting,Not main campus,12,Certificate,Private Non Profit,6,21,34.077381,-117.353488,California
111762,CET-Watsonville,Watsonville,CA,95076,Council on Occupational Education,https://www.cetweb.edu,Predominantely certificate-degree granting,Not main campus,12,Certificate,Private Non Profit,6,13,36.931833,-121.767991,California
111799,CET-Salinas,Salinas,CA,93906,Council on Occupational Education,https://cetweb.edu,Predominantely certificate-degree granting,Not main campus,12,Certificate,Private Non Profit,6,12,36.707333,-121.65236,California
111887,Cerritos College,Norwalk,CA,90650-6298,Western Association of Schools and Colleges Accrediting Commission for Community and Junior Colleges,www.cerritos.edu,Predominantely certificate-degree granting,main campus,1,Associate,Public,6,21,33.886874,-118.097337,California
111896,Cerro Coso Community College,Ridgecrest,CA,93555-9571,Western Association of Schools and Colleges Accrediting Commission for Community and Junior Colleges,cerrocoso.edu,Predominantely associate's-degree granting,main campus,1,Associate,Public,6,41,35.567525,-117.66767,California
111920,Chabot College,Hayward,CA,94545,Western Association of Schools and Colleges Accrediting Commission for Community and Junior Colleges,www.chabotcollege.edu,Predominantely associate's-degree granting,main campus,1,Associate,Public,6,12,37.642458,-122.105636,California
111939,Chaffey College,Rancho Cucamonga,CA,91737-3002,Western Association of Schools and Colleges Accrediting Commission for Community and Junior Colleges,www.chaffey.edu,Predominantely associate's-degree granting,main campus,1,Associate,Public,6,21,34.147663,-117.573932,California
111948,Chapman University,Orange,CA,92866,Western Association of Schools and Colleges Senior Colleges and University Commission,https://www.chapman.edu,Predominantly bachelor's-degree granting,main campus,1,Graduate,Private Non Profit,6,12,33.79302,-117.852518,California
111966,Charles R Drew University of Medicine and Science,Los Angeles,CA,90059,Western Association of Schools and Colleges Senior Colleges and University Commission,www.cdrewu.edu,Predominantely associate's-degree granting,main campus,1,Graduate,Private Non Profit,6,21,33.925658,-118.242791,California
112075,Concordia University-Irvine,Irvine,CA,92612-3203,Western Association of Schools and Colleges Senior Colleges and University Commission,www.cui.edu,Predominantly bachelor's-degree granting,main campus,1,Graduate,Private Non Profit,6,11,33.653665,-117.812305,California
112084,San Diego Christian College,Santee,CA,92071,Western Association of Schools and Colleges Senior Colleges and University Commission,sdcc.edu,Predominantly bachelor's-degree granting,main campus,1,Graduate,Private Non Profit,6,21,32.842404,-116.978112,California
112127,Church Divinity School of the Pacific,Berkeley,CA,94709-1211,Commission on Accrediting of the Association of Theological Schools,www.cdsp.edu,Entirely graduate-degree granting,main campus,1,Graduate,Private Non Profit,6,12,37.876184,-122.261122,California
112172,Citrus College,Glendora,CA,91741-1899,Western Association of Schools and Colleges Accrediting Commission for Community and Junior Colleges,https://www.citruscollege.edu,Predominantely associate's-degree granting,main campus,1,Associate,Public,6,21,34.135487,-117.885266,California
112181,Citrus Heights Beauty College,Citrus Heights,CA,95610-1410,National Accrediting Commission of Career Arts and Sciences,chbeautycollege.com,Predominantely certificate-degree granting,main campus,1,Certificate,Private For Profit,6,21,38.712951,-121.289529,California
112190,City College of San Francisco,San Francisco,CA,94112-1898,Western Association of Schools and Colleges Accrediting Commission for Community and Junior Colleges,www.ccsf.edu,Predominantely certificate-degree granting,main campus,1,Associate,Public,6,11,37.725953,-122.451155,California
112251,Claremont Graduate University,Claremont,CA,91711-6160,Western Association of Schools and Colleges Senior Colleges and University Commission,www.cgu.edu,Entirely graduate-degree granting,main campus,1,Graduate,Private Non Profit,6,21,34.103585,-117.713703,California
112260,Claremont McKenna College,Claremont,CA,91711-6400,Western Association of Schools and Colleges Senior Colleges and University Commission,www.cmc.edu,Predominantly bachelor's-degree granting,main campus,1,Graduate,Private Non Profit,6,21,34.102154,-117.711188,California
112288,Milan Institute-Visalia,Visalia,CA,93277,Council on Occupational Education,www.milaninstitute.edu,Predominantely certificate-degree granting,main campus,2,Certificate,Private For Profit,6,12,36.27164,-119.312151,California
112367,Clovis Adult Education,Clovis,CA,93611,Council on Occupational Education,clovisadult.cusd.com,Predominantely certificate-degree granting,main campus,1,Certificate,Public,6,21,36.834459,-119.690369,California
112385,Coastline Community College,Fountain Valley,CA,92708-2597,Western Association of Schools and Colleges Accrediting Commission for Community and Junior Colleges,www.coastline.edu,Predominantely associate's-degree granting,main campus,1,Associate,Public,6,13,33.715634,-117.929143,California
112394,Cogswell College,San Jose,CA,95134,Western Association of Schools and Colleges Senior Colleges and University Commission,www.cogswell.edu,Predominantly bachelor's-degree granting,main campus,1,Bachelors,Private For Profit,6,11,37.414049,-121.94087,California
112455,Coba Academy,Anaheim,CA,92801,National Accrediting Commission of Career Arts and Sciences,www.coba.edu,Predominantely certificate-degree granting,main campus,1,Certificate,Private For Profit,6,11,33.841141,-117.943108,California
112525,Western University of Health Sciences,Pomona,CA,91766-1854,Western Association of Schools and Colleges Senior Colleges and University Commission,www.westernu.edu,Entirely graduate-degree granting,main campus,1,Graduate,Private Non Profit,6,21,34.058092,-117.747732,California
112561,Columbia College,Sonora,CA,95370,Western Association of Schools and Colleges Accrediting Commission for Community and Junior Colleges,www.gocolumbia.edu/,Predominantely associate's-degree granting,main campus,1,Associate,Public,6,41,38.030367,-120.388385,California
112570,Columbia College Hollywood,Tarzana,CA,91356-1411,Western Association of Schools and Colleges Senior Colleges and University Commission,https://www.columbiacollege.edu,Predominantly bachelor's-degree granting,main campus,1,Bachelors,Private Non Profit,6,11,34.17972,-118.538793,California
112686,Compton College,Compton,CA,90221-5393,Western Association of Schools and Colleges Accrediting Commission for Community and Junior Colleges,www.compton.edu,Predominantely associate's-degree granting,Not main campus,2,Associate,Public,6,21,33.878226,-118.209463,California
112826,Contra Costa College,San Pablo,CA,94806-3195,Western Association of Schools and Colleges Accrediting Commission for Community and Junior Colleges,https://www.contracosta.edu,Predominantely associate's-degree granting,main campus,1,Associate,Public,6,21,37.969381,-122.337377,California
113096,Cosumnes River College,Sacramento,CA,95823-5799,Western Association of Schools and Colleges Accrediting Commission for Community and Junior Colleges,https://www.crc.losrios.edu,Predominantely associate's-degree granting,main campus,1,Associate,Public,6,11,38.45295,-121.423108,California
113111,Crafton Hills College,Yucaipa,CA,92339-1799,Western Association of Schools and Colleges Accrediting Commission for Community and Junior Colleges,www.craftonhills.edu,Predominantely associate's-degree granting,main campus,1,Associate,Public,6,41,34.039178,-117.101173,California
113193,Cuesta College,San Luis Obispo,CA,93403-8106,Western Association of Schools and Colleges Accrediting Commission for Community and Junior Colleges,https://www.cuesta.edu,Predominantely associate's-degree granting,main campus,1,Associate,Public,6,23,35.331276,-120.742235,California
113218,Cuyamaca College,El Cajon,CA,92019,Western Association of Schools and Colleges Accrediting Commission for Community and Junior Colleges,www.cuyamaca.edu,Predominantely associate's-degree granting,main campus,1,Associate,Public,6,21,32.744954,-116.943507,California
113236,Cypress College,Cypress,CA,90630-5897,Western Association of Schools and Colleges Accrediting Commission for Community and Junior Colleges,www.cypresscollege.edu,Predominantely associate's-degree granting,main campus,1,Associate,Public,6,21,33.82833,-118.025143,California
113333,De Anza College,Cupertino,CA,95014,Western Association of Schools and Colleges Accrediting Commission for Community and Junior Colleges,www.deanza.edu/,Predominantely associate's-degree granting,main campus,1,Associate,Public,6,13,37.320788,-122.045558,California
113449,International School of Beauty Inc,Palm Desert,CA,92260-2740,National Accrediting Commission of Career Arts and Sciences,https://btyschool.com/,Predominantely certificate-degree granting,main campus,1,Certificate,Private For Profit,6,21,33.729555,-116.403928,California
113537,Dell'Arte International School of Physical Theatre,Blue Lake,CA,95525-0816,National Association of Schools of Theatre,www.dellarte.com/school,Predominantely certificate-degree granting,main campus,1,Graduate,Private Non Profit,6,41,40.880924,-123.988808,California
113573,College of the Desert,Palm Desert,CA,92260,Western Association of Schools and Colleges Accrediting Commission for Community and Junior Colleges,www.collegeofthedesert.edu,Predominantely associate's-degree granting,main campus,1,Associate,Public,6,21,33.732108,-116.388271,California
113582,Design Institute of San Diego,San Diego,CA,92121,Western Association of Schools and Colleges Senior Colleges and University Commission,www.disd.edu,Predominantly bachelor's-degree granting,main campus,1,Bachelors,Private For Profit,6,11,32.880926,-117.167374,California
113634,Diablo Valley College,Pleasant Hill,CA,94523,Western Association of Schools and Colleges Accrediting Commission for Community and Junior Colleges,https://www.dvc.edu,Predominantely associate's-degree granting,main campus,1,Associate,Public,6,21,37.968516,-122.073142,California
113698,Dominican University of California,San Rafael,CA,94901-2298,Western Association of Schools and Colleges Senior Colleges and University Commission,https://www.dominican.edu,Predominantly bachelor's-degree granting,main campus,1,Graduate,Private Non Profit,6,13,37.981279,-122.512051,California
113704,Dominican School of Philosophy & Theology,Berkeley,CA,94708-1816,Western Association of Schools and Colleges Senior Colleges and University Commission,https://www.dspt.edu,Entirely graduate-degree granting,main campus,1,Graduate,Private Non Profit,6,12,37.881099,-122.264612,California
113856,East Los Angeles College,Monterey Park,CA,91754-6099,Western Association of Schools and Colleges Accrediting Commission for Community and Junior Colleges,www.elac.edu/,Predominantely certificate-degree granting,main campus,1,Associate,Public,6,13,34.040531,-118.148785,California
113980,El Camino Community College District,Torrance,CA,90506,Western Association of Schools and Colleges Accrediting Commission for Community and Junior Colleges,www.elcamino.edu,Predominantely associate's-degree granting,main campus,2,Associate,Public,6,21,33.885229,-118.329913,California
114044,Elegance International,Hollywood,CA,90028,NULL,ei.edu/,Predominantely certificate-degree granting,main campus,1,Certificate,Private For Profit,6,11,34.098445,-118.338111,California
114114,Emperor's College of Traditional Oriental Medicine,Santa Monica,CA,90403,Accrediting Commission for Acupuncture and Oriental Medicine,www.emperors.edu,Entirely graduate-degree granting,main campus,1,Graduate,Private For Profit,6,13,34.030438,-118.485119,California
114123,Empire College,Santa Rosa,CA,95403-2126,Accrediting Council for Independent Colleges and Schools,www.empcol.edu,Predominantely certificate-degree granting,main campus,1,Graduate,Private For Profit,6,12,38.468052,-122.729337,California
114266,Evergreen Valley College,San Jose,CA,95135-1598,Western Association of Schools and Colleges Accrediting Commission for Community and Junior Colleges,www.evc.edu,Predominantely associate's-degree granting,main campus,1,Associate,Public,6,11,37.30167,-121.76561,California
114354,FIDM-Fashion Institute of Design & Merchandising-Los Angeles,Los Angeles,CA,90015-1421,Western Association of Schools and Colleges Senior Colleges and University Commission,www.fidm.edu,Predominantely associate's-degree granting,main campus,4,Bachelors,Private For Profit,6,11,34.044209,-118.25993,California
114390,FIDM-Fashion Institute of Design & Merchandising-San Francisco,San Francisco,CA,94108-5805,Western Association of Schools and Colleges Senior Colleges and University Commission,WWW.FIDM.EDU,Predominantely associate's-degree granting,Not main campus,4,Bachelors,Private For Profit,6,11,37.786353,-122.406651,California
114415,FIDM-Fashion Institute of Design & Merchandising-Orange County,Irvine,CA,92614-5610,Western Association of Schools and Colleges Senior Colleges and University Commission,www.FIDM.edu,Predominantely associate's-degree granting,Not main campus,4,Bachelors,Private For Profit,6,11,33.691963,-117.852254,California
114433,Feather River Community College District,Quincy,CA,95971-9124,Western Association of Schools and Colleges Accrediting Commission for Community and Junior Colleges,www.frc.edu,Predominantely associate's-degree granting,main campus,1,Bachelors,Public,6,41,39.953101,-120.973067,California
114460,Federico Beauty Institute,Sacramento,CA,95834,National Accrediting Commission of Career Arts and Sciences,federico.edu,Predominantely certificate-degree granting,main campus,1,Certificate,Private For Profit,6,21,38.64883,-121.497761,California
114549,Fielding Graduate University,Santa Barbara,CA,93105-3538,Western Association of Schools and Colleges Senior Colleges and University Commission,www.fielding.edu,Entirely graduate-degree granting,main campus,1,Graduate,Private Non Profit,6,13,34.42941,-119.717161,California
114585,Five Branches University,Santa Cruz,CA,95062,Accrediting Commission for Acupuncture and Oriental Medicine,www.fivebranches.edu,Entirely graduate-degree granting,main campus,2,Graduate,Private For Profit,6,22,36.964348,-121.998245,California
114637,Redondo Beach Beauty College,Redondo Beach,CA,90278-3111,National Accrediting Commission of Career Arts and Sciences,rbbeautycollege.com,Predominantely certificate-degree granting,main campus,1,Certificate,Private For Profit,6,21,33.873098,-118.372137,California
114716,Foothill College,Los Altos Hills,CA,94022,Western Association of Schools and Colleges Accrediting Commission for Community and Junior Colleges,https://foothill.edu,Predominantely certificate-degree granting,main campus,1,Bachelors,Public,6,21,37.361655,-122.127964,California
114734,Franciscan School of Theology,Oceanside,CA,92057,Western Association of Schools and Colleges Senior Colleges and University Commission,www.fst.edu,Entirely graduate-degree granting,main campus,2,Graduate,Private Non Profit,6,21,33.232416,-117.320066,California
114761,Fredrick and Charles Beauty College,Eureka,CA,95501,National Accrediting Commission of Career Arts and Sciences,www.fandcbeauty.com,Predominantely certificate-degree granting,main campus,1,Certificate,Private For Profit,6,33,40.798885,-124.164986,California
114789,Fresno City College,Fresno,CA,93741,Western Association of Schools and Colleges Accrediting Commission for Community and Junior Colleges,www.fresnocitycollege.edu,Predominantely associate's-degree granting,main campus,1,Associate,Public,6,11,36.768164,-119.796096,California
114813,Fresno Pacific University,Fresno,CA,93702-4709,Western Association of Schools and Colleges Senior Colleges and University Commission,www.fresno.edu,Predominantly bachelor's-degree granting,main campus,1,Graduate,Private Non Profit,6,11,36.726831,-119.735199,California
114840,Fuller Theological Seminary,Pasadena,CA,91182,Western Association of Schools and Colleges Senior Colleges and University Commission,www.fuller.edu,Entirely graduate-degree granting,main campus,1,Graduate,Private Non Profit,6,12,34.14778,-118.140261,California
114859,Fullerton College,Fullerton,CA,92832-2095,Western Association of Schools and Colleges Accrediting Commission for Community and Junior Colleges,www.fullcoll.edu,Predominantely associate's-degree granting,main campus,1,Associate,Public,6,21,33.875514,-117.918255,California
114938,Gavilan College,Gilroy,CA,95020,Western Association of Schools and Colleges Accrediting Commission for Community and Junior Colleges,https://www.gavilan.edu,Predominantely certificate-degree granting,main campus,1,Associate,Public,6,23,36.972627,-121.569842,California
114947,Gemological Institute of America-Carlsbad,Carlsbad,CA,92008,Accrediting Commission of Career Schools and Colleges,www.gia.edu/gem-education,Predominantely certificate-degree granting,main campus,2,Certificate,Private Non Profit,6,12,33.131313,-117.318765,California
115001,Glendale Community College,Glendale,CA,91208-2894,Western Association of Schools and Colleges Accrediting Commission for Community and Junior Colleges,www.glendale.edu,Predominantely associate's-degree granting,main campus,1,Associate,Public,6,12,34.16745,-118.227666,California
115010,Glendale Career College,Glendale,CA,91203,Accrediting Bureau of Health Education Schools,www.success.edu,Predominantely certificate-degree granting,main campus,2,Associate,Private For Profit,6,12,34.149771,-118.254719,California
115083,Golden Gate University-San Francisco,San Francisco,CA,94105-2968,Western Association of Schools and Colleges Senior Colleges and University Commission,www.ggu.edu,Predominantly bachelor's-degree granting,main campus,4,Graduate,Private Non Profit,6,11,37.789374,-122.398969,California
115126,Golden West College,Huntington Beach,CA,92647-2710,Western Association of Schools and Colleges Accrediting Commission for Community and Junior Colleges,www.goldenwestcollege.edu,Predominantely associate's-degree granting,main campus,1,Associate,Public,6,21,33.732531,-118.002568,California
115214,Graduate Theological Union,Berkeley,CA,94709,Commission on Accrediting of the Association of Theological Schools,WWW.GTU.EDU,Entirely graduate-degree granting,main campus,1,Graduate,Private Non Profit,6,12,37.87554,-122.261847,California
115296,Grossmont College,El Cajon,CA,92020-1799,Western Association of Schools and Colleges Accrediting Commission for Community and Junior Colleges,www.grossmont.edu/,Predominantely associate's-degree granting,main campus,1,Associate,Public,6,21,32.815246,-117.006277,California
115357,Salon Success Academy-Riverside,Riverside,CA,92506,National Accrediting Commission of Career Arts and Sciences,www.gotobeautyschool.com,Predominantely certificate-degree granting,main campus,1,Certificate,Private For Profit,6,11,33.943149,-117.391024,California
115393,Hartnell College,Salinas,CA,93901,Western Association of Schools and Colleges Accrediting Commission for Community and Junior Colleges,www.hartnell.edu,Predominantely associate's-degree granting,main campus,1,Associate,Public,6,12,36.675091,-121.666054,California
115409,Harvey Mudd College,Claremont,CA,91711,Western Association of Schools and Colleges Senior Colleges and University Commission,https://www.hmc.edu,Predominantly bachelor's-degree granting,main campus,1,Bachelors,Private Non Profit,6,21,34.106515,-117.709837,California
115658,Hilltop Beauty School,Daly City,CA,94014,National Accrediting Commission of Career Arts and Sciences,www.hilltopbeautyschool.com,Predominantely certificate-degree granting,main campus,1,Certificate,Private For Profit,6,21,37.705502,-122.461467,California
115728,Holy Names University,Oakland,CA,94619-1699,Western Association of Schools and Colleges Senior Colleges and University Commission,www.hnu.edu,Predominantly bachelor's-degree granting,main campus,1,Graduate,Private Non Profit,6,11,37.802276,-122.187804,California
115746,Pacifica Graduate Institute,Carpinteria,CA,93013,Western Association of Schools and Colleges Senior Colleges and University Commission,www.pacifica.edu,Entirely graduate-degree granting,main campus,1,Graduate,Private For Profit,6,41,34.420881,-119.580414,California
115755,Humboldt State University,Arcata,CA,95521-8299,Western Association of Schools and Colleges Senior Colleges and University Commission,www.humboldt.edu,Predominantly bachelor's-degree granting,main campus,1,Graduate,Public,6,33,40.877481,-124.078293,California
115773,Humphreys University-Stockton and Modesto Campuses,Stockton,CA,95207-3896,Western Association of Schools and Colleges Senior Colleges and University Commission,www.humphreys.edu,Predominantly bachelor's-degree granting,main campus,2,Graduate,Private Non Profit,6,11,38.011489,-121.316918,California
115861,Imperial Valley College,Imperial,CA,92251-0158,Western Association of Schools and Colleges Accrediting Commission for Community and Junior Colleges,www.imperial.edu,Predominantely associate's-degree granting,main campus,1,Associate,Public,6,41,32.827209,-115.503563,California
115931,Institute for Business and Technology,Santa Clara,CA,95051-1303,Accrediting Commission of Career Schools and Colleges,https://ibt.edu/,Predominantely certificate-degree granting,main campus,3,Associate,Private For Profit,6,12,37.368642,-121.969541,California
116226,Interior Designers Institute,Newport Beach,CA,92660,Accrediting Commission of Career Schools and Colleges,https://www.idi.edu/,Predominantely associate's-degree granting,main campus,1,Bachelors,Private For Profit,6,13,33.641393,-117.865722,California
116350,Toni & Guy Hairdressing Academy-Santa Monica,Santa Monica,CA,90401,National Accrediting Commission of Career Arts and Sciences,www.toniguy.edu/,Predominantely certificate-degree granting,main campus,3,Certificate,Private For Profit,6,13,34.017276,-118.494755,California
116439,Irvine Valley College,Irvine,CA,92618-0301,Western Association of Schools and Colleges Accrediting Commission for Community and Junior Colleges,www.ivc.edu,Predominantely certificate-degree granting,main campus,2,Associate,Public,6,11,33.675381,-117.777539,California
116563,Bellus Academy-El Cajon,El Cajon,CA,92021,National Accrediting Commission of Career Arts and Sciences,www.bellusacademy.edu,Predominantely certificate-degree granting,main campus,1,Certificate,Private For Profit,6,21,32.794072,-116.94627,California
116712,John F. Kennedy University,Pleasant Hill,CA,94523-4817,Western Association of Schools and Colleges Senior Colleges and University Commission,https://www.jfku.edu,Predominantly bachelor's-degree granting,main campus,1,Graduate,Private Non Profit,6,21,37.956616,-122.054761,California
116846,American Jewish University,Los Angeles,CA,90077-1519,Western Association of Schools and Colleges Senior Colleges and University Commission,www.aju.edu,Predominantly bachelor's-degree granting,main campus,1,Graduate,Private Non Profit,6,11,34.128153,-118.471706,California
117052,Reedley College,Reedley,CA,93654,Western Association of Schools and Colleges Accrediting Commission for Community and Junior Colleges,www.reedleycollege.edu,Predominantely certificate-degree granting,main campus,1,Associate,Public,6,32,36.605428,-119.458555,California
117104,Life Pacific University,San Dimas,CA,91773-3298,Western Association of Schools and Colleges Senior Colleges and University Commission,https://www.lifepacific.edu,Predominantly bachelor's-degree granting,main campus,2,Graduate,Private Non Profit,6,21,34.098705,-117.829388,California
117140,University of La Verne,La Verne,CA,91750-4401,Western Association of Schools and Colleges Senior Colleges and University Commission,www.laverne.edu/,Predominantly bachelor's-degree granting,main campus,1,Graduate,Private Non Profit,6,21,34.100855,-117.773262,California
117168,Laguna College of Art and Design,Laguna Beach,CA,92651,Western Association of Schools and Colleges Senior Colleges and University Commission,www.lcad.edu,Predominantly bachelor's-degree granting,main campus,1,Graduate,Private Non Profit,6,41,33.561448,-117.772564,California
117195,Lake Tahoe Community College,South Lake Tahoe,CA,96150,Western Association of Schools and Colleges Accrediting Commission for Community and Junior Colleges,www.ltcc.edu,Predominantely associate's-degree granting,main campus,1,Associate,Public,6,41,38.926797,-119.972574,California
117238,Lancaster Beauty School,Lancaster,CA,93534,National Accrediting Commission of Career Arts and Sciences,lancasterbeautyschool.com,Predominantely certificate-degree granting,main campus,1,Certificate,Private For Profit,6,21,34.694914,-118.147547,California
117247,Laney College,Oakland,CA,94607,Western Association of Schools and Colleges Accrediting Commission for Community and Junior Colleges,laney.edu/,Predominantely associate's-degree granting,main campus,1,Associate,Public,6,11,37.797257,-122.26283,California
117274,Lassen Community College,Susanville,CA,96130,Western Association of Schools and Colleges Accrediting Commission for Community and Junior Colleges,www.lassencollege.edu/,Predominantely associate's-degree granting,main campus,1,Associate,Public,6,41,40.432053,-120.633271,California
117520,Life Chiropractic College West,Hayward,CA,94545-2800,Western Association of Schools and Colleges Senior Colleges and University Commission,www.lifewest.edu,Entirely graduate-degree granting,main campus,1,Graduate,Private Non Profit,6,12,37.638099,-122.117619,California
117557,Lincoln University,Oakland,CA,94612-2801,Accrediting Council for Independent Colleges and Schools,www.lincolnuca.edu,Predominantly bachelor's-degree granting,main campus,1,Graduate,Private Non Profit,6,11,37.804788,-122.269745,California
117575,Southern California Seminary,El Cajon,CA,92019-1108,Transnational Association of Christian Colleges and Schools,www.socalsem.edu,Predominantly bachelor's-degree granting,main campus,1,Graduate,Private Non Profit,6,21,32.799614,-116.905461,California
117627,La Sierra University,Riverside,CA,92505-8247,Western Association of Schools and Colleges Senior Colleges and University Commission,https://lasierra.edu,Predominantly bachelor's-degree granting,main campus,1,Graduate,Private Non Profit,6,11,33.910704,-117.500054,California
117636,Loma Linda University,Loma Linda,CA,92350,Western Association of Schools and Colleges Senior Colleges and University Commission,www.llu.edu/index.html,Predominantly bachelor's-degree granting,main campus,1,Graduate,Private Non Profit,6,21,34.051241,-117.260605,California
117645,Long Beach City College,Long Beach,CA,90808-1706,Western Association of Schools and Colleges Accrediting Commission for Community and Junior Colleges,www.lbcc.edu,Predominantely associate's-degree granting,main campus,1,Associate,Public,6,11,33.833593,-118.135633,California
117672,Southern California University of Health Sciences,Whittier,CA,90604,Western Association of Schools and Colleges Senior Colleges and University Commission,www.scuhs.edu,Predominantely certificate-degree granting,main campus,1,Graduate,Private Non Profit,6,21,33.922966,-117.983401,California
117690,Los Angeles Harbor College,Wilmington,CA,90744-2397,Western Association of Schools and Colleges Accrediting Commission for Community and Junior Colleges,www.lahc.edu,Predominantely associate's-degree granting,main campus,1,Associate,Public,6,11,33.784201,-118.28186,California
117706,Los Angeles Pierce College,Woodland Hills,CA,91371-0002,Western Association of Schools and Colleges Accrediting Commission for Community and Junior Colleges,www.piercecollege.edu,Predominantely associate's-degree granting,main campus,1,Associate,Public,6,11,34.183949,-118.575071,California
117715,Los Angeles Southwest College,Los Angeles,CA,90047-4899,Western Association of Schools and Colleges Accrediting Commission for Community and Junior Colleges,www.lasc.edu,Predominantely associate's-degree granting,main campus,1,Associate,Public,6,21,33.929586,-118.304674,California
117724,Los Angeles Trade Technical College,Los Angeles,CA,90015-4181,Western Association of Schools and Colleges Accrediting Commission for Community and Junior Colleges,www.lattc.edu,Predominantely certificate-degree granting,main campus,1,Associate,Public,6,11,34.031907,-118.269447,California
117733,Los Angeles Valley College,Valley Glen,CA,91401-4096,Western Association of Schools and Colleges Accrediting Commission for Community and Junior Colleges,www.lavc.edu,Predominantely associate's-degree granting,main campus,1,Associate,Public,6,11,34.175165,-118.421734,California
117751,The Master's University and Seminary,Santa Clarita,CA,91321-1200,Western Association of Schools and Colleges Senior Colleges and University Commission,www.masters.edu,Predominantly bachelor's-degree granting,main campus,1,Graduate,Private Non Profit,6,21,34.381755,-118.518193,California
117788,Los Angeles City College,Los Angeles,CA,90029,Western Association of Schools and Colleges Accrediting Commission for Community and Junior Colleges,www.lacitycollege.edu/,Predominantely certificate-degree granting,main campus,1,Associate,Public,6,11,34.087301,-118.292169,California
117803,Los Angeles County College of Nursing and Allied Health,Los Angeles,CA,90033-1084,Western Association of Schools and Colleges Accrediting Commission for Community and Junior Colleges,dhs.lacounty.gov/wps/portal/dhs/conah/,Predominantely associate's-degree granting,main campus,1,Associate,Public,6,11,34.062647,-118.211852,California
117867,Los Angeles Mission College,Sylmar,CA,91342-3200,Western Association of Schools and Colleges Accrediting Commission for Community and Junior Colleges,www.lamission.edu,Predominantely associate's-degree granting,main campus,1,Associate,Public,6,11,34.314668,-118.4195,California
117894,Los Medanos College,Pittsburg,CA,94565,Western Association of Schools and Colleges Accrediting Commission for Community and Junior Colleges,https://www.losmedanos.edu/,Predominantely associate's-degree granting,main campus,1,Associate,Public,6,21,38.006474,-121.860967,California
117946,Loyola Marymount University,Los Angeles,CA,90045-2659,Western Association of Schools and Colleges Senior Colleges and University Commission,https://www.lmu.edu,Predominantly bachelor's-degree granting,main campus,1,Graduate,Private Non Profit,6,11,33.97085,-118.415744,California
117955,Lu Ross Academy,Ventura,CA,93001-2729,National Accrediting Commission of Career Arts and Sciences,www.lurossacademy.com/,Predominantely certificate-degree granting,main campus,1,Certificate,Private For Profit,6,12,34.278034,-119.293952,California
118134,Lyle's College of Beauty,Bakersfield,CA,93301,NULL,lylescolleges.com,Predominantely certificate-degree granting,main campus,1,Certificate,Private For Profit,6,11,35.386539,-119.02387,California
118143,Lyle's College of  Beauty,Fresno,CA,93710,National Accrediting Commission of Career Arts and Sciences,lylescolleges.com,Predominantely certificate-degree granting,main campus,1,Certificate,Private For Profit,6,11,36.836265,-119.774167,California
118161,Lytles Redwood Empire Beauty College Inc,Santa Rosa,CA,95403,National Accrediting Commission of Career Arts and Sciences,www.lytlesrebc.edu/,Predominantely certificate-degree granting,main campus,1,Certificate,Private For Profit,6,21,38.508385,-122.75777,California
118189,MTI Business College Inc,Stockton,CA,95207-4349,NULL,www.mtistockton.com,Predominantely certificate-degree granting,main campus,1,Certificate,Private For Profit,6,11,38.007885,-121.308445,California
118198,MTI College,Sacramento,CA,95841-9817,Western Association of Schools and Colleges Accrediting Commission for Community and Junior Colleges,www.mticollege.edu,Predominantely certificate-degree granting,main campus,1,Associate,Private For Profit,6,21,38.661377,-121.342568,California
118347,College of Marin,Kentfield,CA,94904-2590,Western Association of Schools and Colleges Accrediting Commission for Community and Junior Colleges,www.marin.edu,Predominantely associate's-degree granting,main campus,1,Associate,Public,6,21,37.954897,-122.549149,California
118541,Marymount California University,Rancho Palos Verdes,CA,90275-6299,Western Association of Schools and Colleges Senior Colleges and University Commission,www.marymountcalifornia.edu/,Predominantely associate's-degree granting,main campus,3,Graduate,Private Non Profit,6,21,33.734887,-118.333371,California
118684,Mendocino College,Ukiah,CA,95482,Western Association of Schools and Colleges Accrediting Commission for Community and Junior Colleges,www.mendocino.edu,Predominantely associate's-degree granting,main campus,1,Associate,Public,6,41,39.188989,-123.228809,California
118693,Menlo College,Atherton,CA,94027-4301,Western Association of Schools and Colleges Senior Colleges and University Commission,www.menlo.edu,Predominantly bachelor's-degree granting,main campus,1,Bachelors,Private Non Profit,6,21,37.453475,-122.190797,California
118718,Merced College,Merced,CA,95348-2898,Western Association of Schools and Colleges Accrediting Commission for Community and Junior Colleges,www.mccd.edu,Predominantely associate's-degree granting,main campus,1,Associate,Public,6,13,37.3353,-120.476464,California
118772,Merritt College,Oakland,CA,94619-3196,Western Association of Schools and Colleges Accrediting Commission for Community and Junior Colleges,www.merritt.edu,Predominantely certificate-degree granting,main campus,1,Associate,Public,6,11,37.789088,-122.167335,California
118888,Mills College,Oakland,CA,94613,Western Association of Schools and Colleges Senior Colleges and University Commission,https://www.mills.edu,Predominantly bachelor's-degree granting,main campus,1,Graduate,Private Non Profit,6,11,37.781425,-122.182294,California
118912,MiraCosta College,Oceanside,CA,92056-3899,Western Association of Schools and Colleges Accrediting Commission for Community and Junior Colleges,www.miracosta.edu,Predominantely certificate-degree granting,main campus,2,Associate,Public,6,21,33.190483,-117.302606,California
118930,Mission College,Santa Clara,CA,95054-1897,Western Association of Schools and Colleges Accrediting Commission for Community and Junior Colleges,www.missioncollege.edu/,Predominantely associate's-degree granting,main campus,1,Associate,Public,6,12,37.391935,-121.980783,California
118958,Modern Beauty Academy,Oxnard,CA,93030,National Accrediting Commission of Career Arts and Sciences,www.modernbeautyacademy.org,Predominantely certificate-degree granting,main campus,1,Certificate,Private For Profit,6,12,34.195384,-119.181423,California
118976,Modesto Junior College,Modesto,CA,95350-5800,Western Association of Schools and Colleges Accrediting Commission for Community and Junior Colleges,www.mjc.edu,Predominantely associate's-degree granting,main campus,1,Associate,Public,6,12,37.651056,-121.009792,California
118994,Moler Barber College,Oakland,CA,94609-2419,Accrediting Commission of Career Schools and Colleges,moler.org,Predominantely certificate-degree granting,main campus,1,Certificate,Private For Profit,6,11,37.827075,-122.265352,California
119058,Middlebury Institute of International Studies at Monterey,Monterey,CA,93940,New England Commission on Higher Education,www.middlebury.edu/institute/,Predominantly bachelor's-degree granting,Not main campus,2,Graduate,Private Non Profit,6,22,36.599736,-121.897325,California
119067,Monterey Peninsula College,Monterey,CA,93940-4799,Western Association of Schools and Colleges Accrediting Commission for Community and Junior Colleges,www.mpc.edu,Predominantely associate's-degree granting,main campus,1,Associate,Public,6,22,36.590558,-121.884931,California
119137,Moorpark College,Moorpark,CA,93021-1695,Western Association of Schools and Colleges Accrediting Commission for Community and Junior Colleges,www.moorparkcollege.edu/index.shtml,Predominantely associate's-degree granting,main campus,1,Associate,Public,6,22,34.301146,-118.834528,California
119164,Mt San Antonio College,Walnut,CA,91789-1399,Western Association of Schools and Colleges Accrediting Commission for Community and Junior Colleges,www.mtsac.edu,Predominantely associate's-degree granting,main campus,1,Associate,Public,6,21,34.047764,-117.846629,California
119173,Mount Saint Mary's University,Los Angeles,CA,90049-1599,Western Association of Schools and Colleges Senior Colleges and University Commission,https://www.msmu.edu,Predominantly bachelor's-degree granting,main campus,2,Graduate,Private Non Profit,6,11,34.085315,-118.482879,California
119216,Mt San Jacinto Community College District,San Jacinto,CA,92583-2399,Western Association of Schools and Colleges Accrediting Commission for Community and Junior Colleges,www.msjc.edu,Predominantely associate's-degree granting,main campus,1,Associate,Public,6,22,33.806748,-116.971169,California
119270,Musicians Institute,Hollywood,CA,90028,National Association of Schools of Music,www.mi.edu,Predominantely certificate-degree granting,main campus,1,Bachelors,Private For Profit,6,11,34.101265,-118.337582,California
119331,Napa Valley College,Napa,CA,94558-6236,Western Association of Schools and Colleges Accrediting Commission for Community and Junior Colleges,www.napavalley.edu,Predominantely associate's-degree granting,main campus,1,Associate,Public,6,13,38.274081,-122.274381,California
119553,National Holistic Institute,Emeryville,CA,94608-2008,Accrediting Council for Continuing Education & Training,www.nhi.edu,Predominantely certificate-degree granting,main campus,1,Certificate,Private For Profit,6,21,37.841898,-122.287672,California
119605,National University,La Jolla,CA,92037-1011,Western Association of Schools and Colleges Senior Colleges and University Commission,www.nu.edu,Predominantly bachelor's-degree granting,main campus,1,Graduate,Private Non Profit,6,11,32.909894,-117.243026,California
119678,Naval Postgraduate School,Monterey,CA,93943,Western Association of Schools and Colleges Senior Colleges and University Commission,https://www.nps.edu,Entirely graduate-degree granting,main campus,1,Graduate,Public,6,22,36.597159,-121.874248,California
119775,Newschool of Architecture and Design,San Diego,CA,92101,Western Association of Schools and Colleges Senior Colleges and University Commission,www.newschoolarch.edu,Predominantly bachelor's-degree granting,main campus,1,Graduate,Private For Profit,6,11,32.71331,-117.153305,California
119845,Newberry School of Beauty,Granada Hills,CA,91344-7401,National Accrediting Commission of Career Arts and Sciences,www.newberryschoolofbeauty.net,Predominantely certificate-degree granting,main campus,1,Certificate,Private For Profit,6,11,34.256683,-118.499693,California
119951,North Adrian's College of Beauty Inc,Modesto,CA,95350-2381,National Accrediting Commission of Career Arts and Sciences,www.adrians.edu,Predominantely certificate-degree granting,main campus,1,Certificate,Private For Profit,6,12,37.677778,-120.992753,California
